[{"name": "Krakow", "latitude": 50.0619474, "longitude": 19.9368564, "country": "PL", "state": "Lesser Poland Voivodeship"}, {"name": "Krakow", "latitude": 50.0469432, "longitude": 19.997153435836697, "country": "PL", "state": "Lesser Poland Voivodeship"}, {"name": "Krakow", "latitude": 50.0469432, "longitude": 19.997153435836697, "country": "PL", "state": "Lesser Poland Voivodeship"}, {"name": "Kr\u0105k\u00f3w", "latitude": 51.7294656, "longitude": 18.5150445, "country": "PL", "state": "\u0141\u00f3d\u017a Voivodeship"}, {"name": "Krak\u00f3w", "latitude": 52.3511111, "longitude": 19.9441667, "country": "PL", "state": "Masovian Voivodeship"}][{"name": "Sydney", "latitude": -33.8698439, "longitude": 151.2082848, "country": "AU", "state": "New South Wales"}, {"name": "Sydney", "latitude": -33.867926, "longitude": 151.21013810170962, "country": "AU", "state": "New South Wales"}, {"name": "Council of the City of Sydney", "latitude": -33.8888621, "longitude": 151.2048978618509, "country": "AU", "state": "New South Wales"}, {"name": "Chinatown", "latitude": -33.87849425, "longitude": 151.2040733935, "country": "AU", "state": "New South Wales"}][{"name": "New York County", "latitude": 40.7127281, "longitude": -74.0060152, "country": "US", "state": "New York"}, {"name": "New York", "latitude": 39.6852874, "longitude": -93.9268836, "country": "US", "state": "Missouri"}, {"name": "Lake Oswego", "latitude": 45.4206749, "longitude": -122.670649, "country": "US", "state": "Oregon"}, {"name": "New York", "latitude": 32.1679321, "longitude": -95.6691277, "country": "US", "state": "Texas"}, {"name": "New York", "latitude": 30.8385202, "longitude": -87.2008048, "country": "US", "state": "Florida"}][{"name": "Tokyo", "latitude": 35.6828387, "longitude": 139.7594549, "country": "JP"}, {"name": "Fuchu", "latitude": 35.6611119, "longitude": 139.4734451, "country": "JP"}]